[
  {
    "title": "December 4: Georgian Dream",
    "date": "2023-12-04",
    "image": "/images/cave-monastery.jpeg",
    "link": "/newsletter/georgia.html",
    "location": {
      "lat": 41.7151,
      "lng": 44.8271
    }
  },
  {
    "title": "March 27: Mongolia Adventures",
    "date": "2024-03-27",
    "image": "/images/camel.jpeg",
    "link": "/newsletter/mongolia.html",
    "location": {
      "lat": 47.8864,
      "lng": 106.9057
    }
  },
  {
    "title": "April 3: Taiwan Dispatch",
    "date": "2024-04-03",
    "image": "/images/zhishan.jpeg",
    "link": "/newsletter/taiwan.html",
    "location": {
      "lat": 25.033,
      "lng": 121.5654
    }
  },
  {
    "title": "October 22: Turkey Tales",
    "date": "2024-10-22",
    "image": "/images/turkey.jpeg",
    "link": "/newsletter/turkey.html",
    "location": {
      "lat": 39.9208,
      "lng": 32.8541
    }
  },
  {
    "title": "November 5: Slovenia Stories",
    "date": "2024-11-05",
    "image": "/images/lake-bled.jpeg",
    "link": "/newsletter/slovenia.html",
    "location": {
      "lat": 46.3667,
      "lng": 14.1167
    }
  },
  {
    "title": "November 25: November News",
    "date": "2024-11-25",
    "image": "/images/brno-overlook.jpeg",
    "link": "/newsletter/november.html",
    "location": {
      "lat": 49.1951,
      "lng": 16.6068
    }
  },
  {
    "title": "December 24: Spanish Study",
    "date": "2024-12-24",
    "image": "/images/alhambra.jpeg",
    "link": "/newsletter/spain.html",
    "location": {
      "lat": 40.4168,
      "lng": -3.7038
    }
  }
]